trip_id,arrival_time,departure_time,stop_id,stop_sequence,stop_code,stop_lat,stop_lon,stop_name,zone_id,traffic_speed,free_flow_speed,traffic_confidence,traffic_jam_level,time_delay_minutes,distance_to_next_stop_km,travel_time_to_next_stop_min
142_05_23,05:24:11,05:24:11,148,1,DC3555,28.61448074,76.98106202,Jharoda Crossing,148,31,40,0.902645,FRC2,0.0,0.29747972176626325,1.1833333333333333
142_05_23,05:25:49,05:25:49,149,2,DC3556,28.61415,76.985217,Health Centre,149,17,25,1.0,FRC2,0.0,0.4080003892783314,1.6333333333333333
142_05_23,05:26:54,05:26:54,488,3,U00233,28.611746,76.985721,NajafGarh Delhi Gate,488,17,31,0.999548,FRC2,0.0,0.2709550241942649,1.0833333333333333
142_05_23,05:28:44,05:28:44,233,4,U00226,28.61031861,76.98133766,Police Station NajafGarh,233,25,37,0.985702,FRC2,0.0,0.4569544123278267,1.8333333333333333
142_05_23,05:30:10,05:30:10,915,5,U00193,28.61149114,76.97790955,Dhansa Stand,915,27,37,0.927578,FRC2,0.0,0.35957782857750537,1.4333333333333333
142_05_23,05:31:43,05:31:43,916,6,DC3547,28.610938,76.97401,Khera More,916,27,37,0.927578,FRC2,0.0,0.38627665986712667,1.55
142_05_23,05:33:46,05:33:46,2161,7,DC4783,28.606425,76.972858,Krishna Nagar / Gopal Nagar,2161,41,44,0.834944,FRC3,0.0,0.5127058644445781,2.05
142_05_23,05:37:51,05:37:51,2162,8,DC4410,28.5987726,76.96698094,Khera Village,2162,41,44,0.834944,FRC3,0.0,1.0245587045108486,4.083333333333333
142_05_23,05:39:08,05:39:08,3569,9,DC5497,28.596347,76.965226,Khera Village 2,3569,41,44,0.834944,FRC3,0.0,0.3189582796005639,1.2833333333333334
142_05_23,05:43:54,05:43:54,2163,10,DC4411,28.586969,76.959227,KharKhari Nahar / Khera Dabur,2163,41,44,0.834944,FRC3,0.0,1.1935722007050553,4.766666666666667
142_05_23,05:46:05,05:46:05,2164,11,DC4412,28.58215173,76.95808206,Surhera Crossing,2164,41,44,0.834944,FRC3,0.0,0.5455151284217342,2.183333333333333
142_05_23,05:50:24,05:50:24,2165,12,DC4413,28.573848,76.952387,Pandwala Crossing,2165,41,44,0.834944,FRC3,0.0,1.075809072386236,4.316666666666666
142_05_23,05:57:09,05:57:09,2166,13,DC4414,28.561696,76.941952,KharKhari Rondh,2166,41,44,0.834944,FRC3,0.0,1.690039991091642,6.75
142_05_23,06:00:13,06:00:13,2167,14,DC4415,28.556475,76.936796,Hasanpur Village,2167,41,44,0.834944,FRC3,0.0,0.7676925380059371,3.066666666666667
142_05_23,06:04:20,06:04:20,2168,15,DC4416,28.548826,76.930857,Devta Wala Mandir,2168,41,44,0.834944,FRC3,0.0,1.027809121584014,4.116666666666666
142_05_23,06:10:36,06:10:36,2169,16,DC4417,28.536825,76.922412,Ghuman Hera More / Shikarpur Crossing,2169,41,44,0.834944,FRC3,0.0,1.5659116348922697,6.266666666666667
142_05_23,06:12:44,06:12:44,2170,17,DC4791,28.5326827,76.9196563,Ghuman Hera Village Main Road,2170,41,44,0.834944,FRC3,0.0,0.5324460644575495,2.1333333333333333
142_05_23,06:14:39,06:14:39,2171,18,DC4429,28.534088,76.915012,Ghuman Hera DTC Depot Crossing,2171,41,44,0.834944,FRC3,0.0,0.48049492789431475,1.9166666666666667
142_05_23,06:16:55,06:16:55,2172,19,DC4013,28.5352,76.909367,Jhul-Jhuli Check Post / Ghumanhera Crossing,2172,42,42,1.0,FRC5,0.0,0.5660666354440679,2.2666666666666666
142_05_23,06:18:44,06:18:44,2173,20,DC4014,28.53162,76.907067,Jhuljhuli Crossing,2173,42,42,1.0,FRC5,0.0,0.4561754051693519,1.8166666666666667
142_05_23,06:21:21,06:21:21,2174,21,DC4015,28.526609,76.903562,Rawta Village,2174,34,34,1.0,FRC3,0.0,0.6527739955192993,2.6166666666666667
142_05_23,06:27:41,06:27:41,2175,22,DC4787,28.5253328,76.8874616,Amrawati Piyau Galib Pur Road,2175,48,48,1.0,FRC4,0.0,1.5822436623266276,6.333333333333333
142_05_23,06:30:43,06:30:43,2176,23,DC4789,28.531301,76.883663,Galib Pur Piyau,2176,48,48,1.0,FRC4,0.0,0.7587770331358497,3.033333333333333
142_05_23,06:31:58,06:31:58,2177,24,DC4785,28.529556,76.881142,Galib Pur Village,2177,48,48,1.0,FRC4,0.0,0.31350425850878233,1.25
142_05_56,05:57:11,05:57:11,148,1,DC3555,28.61448074,76.98106202,Jharoda Crossing,148,31,40,0.902645,FRC2,0.0,0.29747972176626325,1.1833333333333333
142_05_56,05:58:49,05:58:49,149,2,DC3556,28.61415,76.985217,Health Centre,149,17,25,1.0,FRC2,0.0,0.4080003892783314,1.6333333333333333
142_05_56,05:59:54,05:59:54,488,3,U00233,28.611746,76.985721,NajafGarh Delhi Gate,488,17,31,0.999548,FRC2,0.0,0.2709550241942649,1.0833333333333333
142_05_56,06:01:44,06:01:44,233,4,U00226,28.61031861,76.98133766,Police Station NajafGarh,233,25,37,0.985702,FRC2,0.0,0.4569544123278267,1.8333333333333333
142_05_56,06:03:10,06:03:10,915,5,U00193,28.61149114,76.97790955,Dhansa Stand,915,27,37,0.927578,FRC2,0.0,0.35957782857750537,1.4333333333333333
142_05_56,06:04:43,06:04:43,916,6,DC3547,28.610938,76.97401,Khera More,916,27,37,0.927578,FRC2,0.0,0.38627665986712667,1.55
142_05_56,06:06:46,06:06:46,2161,7,DC4783,28.606425,76.972858,Krishna Nagar / Gopal Nagar,2161,41,44,0.834944,FRC3,0.0,0.5127058644445781,2.05
142_05_56,06:10:51,06:10:51,2162,8,DC4410,28.5987726,76.96698094,Khera Village,2162,41,44,0.834944,FRC3,0.0,1.0245587045108486,4.083333333333333
142_05_56,06:12:08,06:12:08,3569,9,DC5497,28.596347,76.965226,Khera Village 2,3569,41,44,0.834944,FRC3,0.0,0.3189582796005639,1.2833333333333334
142_05_56,06:16:54,06:16:54,2163,10,DC4411,28.586969,76.959227,KharKhari Nahar / Khera Dabur,2163,41,44,0.834944,FRC3,0.0,1.1935722007050553,4.766666666666667
142_05_56,06:19:05,06:19:05,2164,11,DC4412,28.58215173,76.95808206,Surhera Crossing,2164,41,44,0.834944,FRC3,0.0,0.5455151284217342,2.183333333333333
142_05_56,06:23:24,06:23:24,2165,12,DC4413,28.573848,76.952387,Pandwala Crossing,2165,41,44,0.834944,FRC3,0.0,1.075809072386236,4.316666666666666
142_05_56,06:30:09,06:30:09,2166,13,DC4414,28.561696,76.941952,KharKhari Rondh,2166,41,44,0.834944,FRC3,0.0,1.690039991091642,6.75
142_05_56,06:33:13,06:33:13,2167,14,DC4415,28.556475,76.936796,Hasanpur Village,2167,41,44,0.834944,FRC3,0.0,0.7676925380059371,3.066666666666667
142_05_56,06:37:20,06:37:20,2168,15,DC4416,28.548826,76.930857,Devta Wala Mandir,2168,41,44,0.834944,FRC3,0.0,1.027809121584014,4.116666666666666
142_05_56,06:43:36,06:43:36,2169,16,DC4417,28.536825,76.922412,Ghuman Hera More / Shikarpur Crossing,2169,41,44,0.834944,FRC3,0.0,1.5659116348922697,6.266666666666667
142_05_56,06:45:44,06:45:44,2170,17,DC4791,28.5326827,76.9196563,Ghuman Hera Village Main Road,2170,41,44,0.834944,FRC3,0.0,0.5324460644575495,2.1333333333333333
142_05_56,06:47:39,06:47:39,2171,18,DC4429,28.534088,76.915012,Ghuman Hera DTC Depot Crossing,2171,41,44,0.834944,FRC3,0.0,0.48049492789431475,1.9166666666666667
142_05_56,06:49:55,06:49:55,2172,19,DC4013,28.5352,76.909367,Jhul-Jhuli Check Post / Ghumanhera Crossing,2172,42,42,1.0,FRC5,0.0,0.5660666354440679,2.2666666666666666
142_05_56,06:51:44,06:51:44,2173,20,DC4014,28.53162,76.907067,Jhuljhuli Crossing,2173,42,42,1.0,FRC5,0.0,0.4561754051693519,1.8166666666666667
142_05_56,06:54:21,06:54:21,2174,21,DC4015,28.526609,76.903562,Rawta Village,2174,34,34,1.0,FRC3,0.0,0.6527739955192993,2.6166666666666667
142_05_56,07:00:41,07:00:41,2175,22,DC4787,28.5253328,76.8874616,Amrawati Piyau Galib Pur Road,2175,48,48,1.0,FRC4,0.0,1.5822436623266276,6.333333333333333
142_05_56,07:03:43,07:03:43,2176,23,DC4789,28.531301,76.883663,Galib Pur Piyau,2176,48,48,1.0,FRC4,0.0,0.7587770331358497,3.033333333333333
142_05_56,07:04:58,07:04:58,2177,24,DC4785,28.529556,76.881142,Galib Pur Village,2177,48,48,1.0,FRC4,0.0,0.31350425850878233,1.25
142_06_29,06:30:11,06:30:11,148,1,DC3555,28.61448074,76.98106202,Jharoda Crossing,148,31,40,0.90254,FRC2,0.0,0.29747972176626325,1.1833333333333333
142_06_29,06:31:49,06:31:49,149,2,DC3556,28.61415,76.985217,Health Centre,149,17,24,1.0,FRC2,0.0,0.4080003892783314,1.6333333333333333
142_06_29,06:32:54,06:32:54,488,3,U00233,28.611746,76.985721,NajafGarh Delhi Gate,488,17,31,0.999548,FRC2,0.0,0.2709550241942649,1.0833333333333333
142_06_29,06:34:44,06:34:44,233,4,U00226,28.61031861,76.98133766,Police Station NajafGarh,233,25,37,0.985794,FRC2,0.0,0.4569544123278267,1.8333333333333333
142_06_29,06:36:10,06:36:10,915,5,U00193,28.61149114,76.97790955,Dhansa Stand,915,27,37,0.924857,FRC2,0.0,0.35957782857750537,1.4333333333333333
142_06_29,06:37:43,06:37:43,916,6,DC3547,28.610938,76.97401,Khera More,916,27,37,0.924857,FRC2,0.0,0.38627665986712667,1.55
142_06_29,06:39:46,06:39:46,2161,7,DC4783,28.606425,76.972858,Krishna Nagar / Gopal Nagar,2161,42,44,0.849355,FRC3,0.0,0.5127058644445781,2.05
142_06_29,06:43:51,06:43:51,2162,8,DC4410,28.5987726,76.96698094,Khera Village,2162,42,44,0.849355,FRC3,0.0,1.0245587045108486,4.083333333333333
142_06_29,06:45:08,06:45:08,3569,9,DC5497,28.596347,76.965226,Khera Village 2,3569,42,44,0.849355,FRC3,0.0,0.3189582796005639,1.2833333333333334
142_06_29,06:49:54,06:49:54,2163,10,DC4411,28.586969,76.959227,KharKhari Nahar / Khera Dabur,2163,42,44,0.849355,FRC3,0.0,1.1935722007050553,4.766666666666667
142_06_29,06:52:05,06:52:05,2164,11,DC4412,28.58215173,76.95808206,Surhera Crossing,2164,42,44,0.849355,FRC3,0.0,0.5455151284217342,2.183333333333333
142_06_29,06:56:24,06:56:24,2165,12,DC4413,28.573848,76.952387,Pandwala Crossing,2165,42,44,0.849355,FRC3,0.0,1.075809072386236,4.316666666666666
142_06_29,07:03:09,07:03:09,2166,13,DC4414,28.561696,76.941952,KharKhari Rondh,2166,42,44,0.849355,FRC3,0.0,1.690039991091642,6.75
142_06_29,07:06:13,07:06:13,2167,14,DC4415,28.556475,76.936796,Hasanpur Village,2167,42,44,0.849355,FRC3,0.0,0.7676925380059371,3.066666666666667
142_06_29,07:10:20,07:10:20,2168,15,DC4416,28.548826,76.930857,Devta Wala Mandir,2168,42,44,0.849355,FRC3,0.0,1.027809121584014,4.116666666666666
142_06_29,07:16:36,07:16:36,2169,16,DC4417,28.536825,76.922412,Ghuman Hera More / Shikarpur Crossing,2169,42,44,0.849355,FRC3,0.0,1.5659116348922697,6.266666666666667
142_06_29,07:18:44,07:18:44,2170,17,DC4791,28.5326827,76.9196563,Ghuman Hera Village Main Road,2170,42,44,0.849355,FRC3,0.0,0.5324460644575495,2.1333333333333333
142_06_29,07:20:39,07:20:39,2171,18,DC4429,28.534088,76.915012,Ghuman Hera DTC Depot Crossing,2171,42,44,0.849355,FRC3,0.0,0.48049492789431475,1.9166666666666667
142_06_29,07:22:55,07:22:55,2172,19,DC4013,28.5352,76.909367,Jhul-Jhuli Check Post / Ghumanhera Crossing,2172,42,42,1.0,FRC5,0.0,0.5660666354440679,2.2666666666666666
142_06_29,07:24:44,07:24:44,2173,20,DC4014,28.53162,76.907067,Jhuljhuli Crossing,2173,42,42,1.0,FRC5,0.0,0.4561754051693519,1.8166666666666667
142_06_29,07:27:21,07:27:21,2174,21,DC4015,28.526609,76.903562,Rawta Village,2174,34,34,1.0,FRC3,0.0,0.6527739955192993,2.6166666666666667
142_06_29,07:33:41,07:33:41,2175,22,DC4787,28.5253328,76.8874616,Amrawati Piyau Galib Pur Road,2175,48,48,1.0,FRC4,0.0,1.5822436623266276,6.333333333333333
142_06_29,07:36:43,07:36:43,2176,23,DC4789,28.531301,76.883663,Galib Pur Piyau,2176,48,48,1.0,FRC4,0.0,0.7587770331358497,3.033333333333333
142_06_29,07:37:58,07:37:58,2177,24,DC4785,28.529556,76.881142,Galib Pur Village,2177,48,48,1.0,FRC4,0.0,0.31350425850878233,1.25
142_09_14,09:15:11,09:15:11,148,1,DC3555,28.61448074,76.98106202,Jharoda Crossing,148,31,39,0.89828,FRC2,0.0,0.29747972176626325,1.1833333333333333
142_09_14,09:16:49,09:16:49,149,2,DC3556,28.61415,76.985217,Health Centre,149,17,24,1.0,FRC2,0.0,0.4080003892783314,1.6333333333333333
142_09_14,09:17:54,09:17:54,488,3,U00233,28.611746,76.985721,NajafGarh Delhi Gate,488,17,31,0.99923,FRC2,0.0,0.2709550241942649,1.0833333333333333
142_09_14,09:19:44,09:19:44,233,4,U00226,28.61031861,76.98133766,Police Station NajafGarh,233,25,37,0.985661,FRC2,0.0,0.4569544123278267,1.8333333333333333
142_09_14,09:21:10,09:21:10,915,5,U00193,28.61149114,76.97790955,Dhansa Stand,915,28,37,0.922143,FRC2,0.0,0.35957782857750537,1.4333333333333333
142_09_14,09:22:43,09:22:43,916,6,DC3547,28.610938,76.97401,Khera More,916,28,37,0.922143,FRC2,0.0,0.38627665986712667,1.55
142_09_14,09:24:46,09:24:46,2161,7,DC4783,28.606425,76.972858,Krishna Nagar / Gopal Nagar,2161,42,44,0.847567,FRC3,0.0,0.5127058644445781,2.05
142_09_14,09:28:51,09:28:51,2162,8,DC4410,28.5987726,76.96698094,Khera Village,2162,42,44,0.847567,FRC3,0.0,1.0245587045108486,4.083333333333333
142_09_14,09:30:08,09:30:08,3569,9,DC5497,28.596347,76.965226,Khera Village 2,3569,42,44,0.847567,FRC3,0.0,0.3189582796005639,1.2833333333333334
142_09_14,09:34:54,09:34:54,2163,10,DC4411,28.586969,76.959227,KharKhari Nahar / Khera Dabur,2163,42,44,0.847567,FRC3,0.0,1.1935722007050553,4.766666666666667
142_09_14,09:37:05,09:37:05,2164,11,DC4412,28.58215173,76.95808206,Surhera Crossing,2164,42,44,0.847567,FRC3,0.0,0.5455151284217342,2.183333333333333
142_09_14,09:41:24,09:41:24,2165,12,DC4413,28.573848,76.952387,Pandwala Crossing,2165,42,44,0.847567,FRC3,0.0,1.075809072386236,4.316666666666666
142_09_14,09:48:09,09:48:09,2166,13,DC4414,28.561696,76.941952,KharKhari Rondh,2166,42,44,0.847567,FRC3,0.0,1.690039991091642,6.75
142_09_14,09:51:13,09:51:13,2167,14,DC4415,28.556475,76.936796,Hasanpur Village,2167,42,44,0.847567,FRC3,0.0,0.7676925380059371,3.066666666666667
142_09_14,09:55:20,09:55:20,2168,15,DC4416,28.548826,76.930857,Devta Wala Mandir,2168,42,44,0.847567,FRC3,0.0,1.027809121584014,4.116666666666666
142_09_14,10:01:36,10:01:36,2169,16,DC4417,28.536825,76.922412,Ghuman Hera More / Shikarpur Crossing,2169,42,44,0.847567,FRC3,0.0,1.5659116348922697,6.266666666666667
142_09_14,10:03:44,10:03:44,2170,17,DC4791,28.5326827,76.9196563,Ghuman Hera Village Main Road,2170,42,44,0.847567,FRC3,0.0,0.5324460644575495,2.1333333333333333
142_09_14,10:05:39,10:05:39,2171,18,DC4429,28.534088,76.915012,Ghuman Hera DTC Depot Crossing,2171,42,44,0.847567,FRC3,0.0,0.48049492789431475,1.9166666666666667
142_09_14,10:07:55,10:07:55,2172,19,DC4013,28.5352,76.909367,Jhul-Jhuli Check Post / Ghumanhera Crossing,2172,42,42,1.0,FRC5,0.0,0.5660666354440679,2.2666666666666666
142_09_14,10:09:44,10:09:44,2173,20,DC4014,28.53162,76.907067,Jhuljhuli Crossing,2173,42,42,1.0,FRC5,0.0,0.4561754051693519,1.8166666666666667
142_09_14,10:12:21,10:12:21,2174,21,DC4015,28.526609,76.903562,Rawta Village,2174,34,34,1.0,FRC3,0.0,0.6527739955192993,2.6166666666666667
142_09_14,10:18:41,10:18:41,2175,22,DC4787,28.5253328,76.8874616,Amrawati Piyau Galib Pur Road,2175,48,48,1.0,FRC4,0.0,1.5822436623266276,6.333333333333333
142_09_14,10:21:43,10:21:43,2176,23,DC4789,28.531301,76.883663,Galib Pur Piyau,2176,48,48,1.0,FRC4,0.0,0.7587770331358497,3.033333333333333
142_09_14,10:22:58,10:22:58,2177,24,DC4785,28.529556,76.881142,Galib Pur Village,2177,48,48,1.0,FRC4,0.0,0.31350425850878233,1.25
142_10_44,10:45:11,10:45:11,148,1,DC3555,28.61448074,76.98106202,Jharoda Crossing,148,31,39,0.89828,FRC2,0.0,0.29747972176626325,1.1833333333333333
142_10_44,10:46:49,10:46:49,149,2,DC3556,28.61415,76.985217,Health Centre,149,17,24,1.0,FRC2,0.0,0.4080003892783314,1.6333333333333333
142_10_44,10:47:54,10:47:54,488,3,U00233,28.611746,76.985721,NajafGarh Delhi Gate,488,17,31,0.99923,FRC2,0.0,0.2709550241942649,1.0833333333333333
142_10_44,10:49:44,10:49:44,233,4,U00226,28.61031861,76.98133766,Police Station NajafGarh,233,25,37,0.985661,FRC2,0.0,0.4569544123278267,1.8333333333333333
142_10_44,10:51:10,10:51:10,915,5,U00193,28.61149114,76.97790955,Dhansa Stand,915,28,37,0.922143,FRC2,0.0,0.35957782857750537,1.4333333333333333
142_10_44,10:52:43,10:52:43,916,6,DC3547,28.610938,76.97401,Khera More,916,28,37,0.922143,FRC2,0.0,0.38627665986712667,1.55
142_10_44,10:54:46,10:54:46,2161,7,DC4783,28.606425,76.972858,Krishna Nagar / Gopal Nagar,2161,42,44,0.847567,FRC3,0.0,0.5127058644445781,2.05
142_10_44,10:58:51,10:58:51,2162,8,DC4410,28.5987726,76.96698094,Khera Village,2162,42,44,0.847567,FRC3,0.0,1.0245587045108486,4.083333333333333
142_10_44,11:00:08,11:00:08,3569,9,DC5497,28.596347,76.965226,Khera Village 2,3569,42,44,0.847567,FRC3,0.0,0.3189582796005639,1.2833333333333334
142_10_44,11:04:54,11:04:54,2163,10,DC4411,28.586969,76.959227,KharKhari Nahar / Khera Dabur,2163,42,44,0.847567,FRC3,0.0,1.1935722007050553,4.766666666666667
142_10_44,11:07:05,11:07:05,2164,11,DC4412,28.58215173,76.95808206,Surhera Crossing,2164,42,44,0.847567,FRC3,0.0,0.5455151284217342,2.183333333333333
142_10_44,11:11:24,11:11:24,2165,12,DC4413,28.573848,76.952387,Pandwala Crossing,2165,42,44,0.847567,FRC3,0.0,1.075809072386236,4.316666666666666
142_10_44,11:18:09,11:18:09,2166,13,DC4414,28.561696,76.941952,KharKhari Rondh,2166,42,44,0.847567,FRC3,0.0,1.690039991091642,6.75
142_10_44,11:21:13,11:21:13,2167,14,DC4415,28.556475,76.936796,Hasanpur Village,2167,42,44,0.847567,FRC3,0.0,0.7676925380059371,3.066666666666667
142_10_44,11:25:20,11:25:20,2168,15,DC4416,28.548826,76.930857,Devta Wala Mandir,2168,42,44,0.847567,FRC3,0.0,1.027809121584014,4.116666666666666
142_10_44,11:31:36,11:31:36,2169,16,DC4417,28.536825,76.922412,Ghuman Hera More / Shikarpur Crossing,2169,42,44,0.847567,FRC3,0.0,1.5659116348922697,6.266666666666667
142_10_44,11:33:44,11:33:44,2170,17,DC4791,28.5326827,76.9196563,Ghuman Hera Village Main Road,2170,42,44,0.847567,FRC3,0.0,0.5324460644575495,2.1333333333333333
142_10_44,11:35:39,11:35:39,2171,18,DC4429,28.534088,76.915012,Ghuman Hera DTC Depot Crossing,2171,42,44,0.847567,FRC3,0.0,0.48049492789431475,1.9166666666666667
142_10_44,11:37:55,11:37:55,2172,19,DC4013,28.5352,76.909367,Jhul-Jhuli Check Post / Ghumanhera Crossing,2172,42,42,1.0,FRC5,0.0,0.5660666354440679,2.2666666666666666
142_10_44,11:39:44,11:39:44,2173,20,DC4014,28.53162,76.907067,Jhuljhuli Crossing,2173,42,42,1.0,FRC5,0.0,0.4561754051693519,1.8166666666666667
142_10_44,11:42:21,11:42:21,2174,21,DC4015,28.526609,76.903562,Rawta Village,2174,34,34,1.0,FRC3,0.0,0.6527739955192993,2.6166666666666667
142_10_44,11:48:41,11:48:41,2175,22,DC4787,28.5253328,76.8874616,Amrawati Piyau Galib Pur Road,2175,48,48,1.0,FRC4,0.0,1.5822436623266276,6.333333333333333
142_10_44,11:51:43,11:51:43,2176,23,DC4789,28.531301,76.883663,Galib Pur Piyau,2176,48,48,1.0,FRC4,0.0,0.7587770331358497,3.033333333333333
142_10_44,11:52:58,11:52:58,2177,24,DC4785,28.529556,76.881142,Galib Pur Village,2177,48,48,1.0,FRC4,0.0,0.31350425850878233,1.25
142_11_17,11:18:11,11:18:11,148,1,DC3555,28.61448074,76.98106202,Jharoda Crossing,148,31,39,0.89828,FRC2,0.0,0.29747972176626325,1.1833333333333333
142_11_17,11:19:49,11:19:49,149,2,DC3556,28.61415,76.985217,Health Centre,149,17,24,1.0,FRC2,0.0,0.4080003892783314,1.6333333333333333
142_11_17,11:20:54,11:20:54,488,3,U00233,28.611746,76.985721,NajafGarh Delhi Gate,488,17,31,0.99923,FRC2,0.0,0.2709550241942649,1.0833333333333333
142_11_17,11:22:44,11:22:44,233,4,U00226,28.61031861,76.98133766,Police Station NajafGarh,233,25,37,0.985661,FRC2,0.0,0.4569544123278267,1.8333333333333333
142_11_17,11:24:10,11:24:10,915,5,U00193,28.61149114,76.97790955,Dhansa Stand,915,28,37,0.922143,FRC2,0.0,0.35957782857750537,1.4333333333333333
142_11_17,11:25:43,11:25:43,916,6,DC3547,28.610938,76.97401,Khera More,916,28,37,0.922143,FRC2,0.0,0.38627665986712667,1.55
142_11_17,11:27:46,11:27:46,2161,7,DC4783,28.606425,76.972858,Krishna Nagar / Gopal Nagar,2161,42,44,0.847567,FRC3,0.0,0.5127058644445781,2.05
142_11_17,11:31:51,11:31:51,2162,8,DC4410,28.5987726,76.96698094,Khera Village,2162,42,44,0.847567,FRC3,0.0,1.0245587045108486,4.083333333333333
142_11_17,11:33:08,11:33:08,3569,9,DC5497,28.596347,76.965226,Khera Village 2,3569,42,44,0.847567,FRC3,0.0,0.3189582796005639,1.2833333333333334
142_11_17,11:37:54,11:37:54,2163,10,DC4411,28.586969,76.959227,KharKhari Nahar / Khera Dabur,2163,42,44,0.847567,FRC3,0.0,1.1935722007050553,4.766666666666667
142_11_17,11:40:05,11:40:05,2164,11,DC4412,28.58215173,76.95808206,Surhera Crossing,2164,42,44,0.847567,FRC3,0.0,0.5455151284217342,2.183333333333333
142_11_17,11:44:24,11:44:24,2165,12,DC4413,28.573848,76.952387,Pandwala Crossing,2165,42,44,0.847567,FRC3,0.0,1.075809072386236,4.316666666666666
142_11_17,11:51:09,11:51:09,2166,13,DC4414,28.561696,76.941952,KharKhari Rondh,2166,42,44,0.847567,FRC3,0.0,1.690039991091642,6.75
142_11_17,11:54:13,11:54:13,2167,14,DC4415,28.556475,76.936796,Hasanpur Village,2167,42,44,0.847567,FRC3,0.0,0.7676925380059371,3.066666666666667
142_11_17,11:58:20,11:58:20,2168,15,DC4416,28.548826,76.930857,Devta Wala Mandir,2168,42,44,0.847567,FRC3,0.0,1.027809121584014,4.116666666666666
142_11_17,12:04:36,12:04:36,2169,16,DC4417,28.536825,76.922412,Ghuman Hera More / Shikarpur Crossing,2169,42,44,0.847567,FRC3,0.0,1.5659116348922697,6.266666666666667
142_11_17,12:06:44,12:06:44,2170,17,DC4791,28.5326827,76.9196563,Ghuman Hera Village Main Road,2170,42,44,0.847567,FRC3,0.0,0.5324460644575495,2.1333333333333333
142_11_17,12:08:39,12:08:39,2171,18,DC4429,28.534088,76.915012,Ghuman Hera DTC Depot Crossing,2171,42,44,0.847567,FRC3,0.0,0.48049492789431475,1.9166666666666667
142_11_17,12:10:55,12:10:55,2172,19,DC4013,28.5352,76.909367,Jhul-Jhuli Check Post / Ghumanhera Crossing,2172,42,42,1.0,FRC5,0.0,0.5660666354440679,2.2666666666666666
142_11_17,12:12:44,12:12:44,2173,20,DC4014,28.53162,76.907067,Jhuljhuli Crossing,2173,42,42,1.0,FRC5,0.0,0.4561754051693519,1.8166666666666667
142_11_17,12:15:21,12:15:21,2174,21,DC4015,28.526609,76.903562,Rawta Village,2174,34,34,1.0,FRC3,0.0,0.6527739955192993,2.6166666666666667
142_11_17,12:21:41,12:21:41,2175,22,DC4787,28.5253328,76.8874616,Amrawati Piyau Galib Pur Road,2175,48,48,1.0,FRC4,0.0,1.5822436623266276,6.333333333333333
142_11_17,12:24:43,12:24:43,2176,23,DC4789,28.531301,76.883663,Galib Pur Piyau,2176,48,48,1.0,FRC4,0.0,0.7587770331358497,3.033333333333333
142_11_17,12:25:58,12:25:58,2177,24,DC4785,28.529556,76.881142,Galib Pur Village,2177,48,48,1.0,FRC4,0.0,0.31350425850878233,1.25
142_11_50,11:51:11,11:51:11,148,1,DC3555,28.61448074,76.98106202,Jharoda Crossing,148,31,40,0.902645,FRC2,0.0,0.29747972176626325,1.1833333333333333
142_11_50,11:52:49,11:52:49,149,2,DC3556,28.61415,76.985217,Health Centre,149,17,25,1.0,FRC2,0.0,0.4080003892783314,1.6333333333333333
142_11_50,11:53:54,11:53:54,488,3,U00233,28.611746,76.985721,NajafGarh Delhi Gate,488,17,31,0.999548,FRC2,0.0,0.2709550241942649,1.0833333333333333
142_11_50,11:55:44,11:55:44,233,4,U00226,28.61031861,76.98133766,Police Station NajafGarh,233,25,37,0.985702,FRC2,0.0,0.4569544123278267,1.8333333333333333
142_11_50,11:57:10,11:57:10,915,5,U00193,28.61149114,76.97790955,Dhansa Stand,915,27,37,0.927578,FRC2,0.0,0.35957782857750537,1.4333333333333333
142_11_50,11:58:43,11:58:43,916,6,DC3547,28.610938,76.97401,Khera More,916,27,37,0.927578,FRC2,0.0,0.38627665986712667,1.55
142_11_50,12:00:46,12:00:46,2161,7,DC4783,28.606425,76.972858,Krishna Nagar / Gopal Nagar,2161,41,44,0.834944,FRC3,0.0,0.5127058644445781,2.05
142_11_50,12:04:51,12:04:51,2162,8,DC4410,28.5987726,76.96698094,Khera Village,2162,41,44,0.834944,FRC3,0.0,1.0245587045108486,4.083333333333333
142_11_50,12:06:08,12:06:08,3569,9,DC5497,28.596347,76.965226,Khera Village 2,3569,41,44,0.834944,FRC3,0.0,0.3189582796005639,1.2833333333333334
142_11_50,12:10:54,12:10:54,2163,10,DC4411,28.586969,76.959227,KharKhari Nahar / Khera Dabur,2163,41,44,0.834944,FRC3,0.0,1.1935722007050553,4.766666666666667
142_11_50,12:13:05,12:13:05,2164,11,DC4412,28.58215173,76.95808206,Surhera Crossing,2164,41,44,0.834944,FRC3,0.0,0.5455151284217342,2.183333333333333
142_11_50,12:17:24,12:17:24,2165,12,DC4413,28.573848,76.952387,Pandwala Crossing,2165,41,44,0.834944,FRC3,0.0,1.075809072386236,4.316666666666666
142_11_50,12:24:09,12:24:09,2166,13,DC4414,28.561696,76.941952,KharKhari Rondh,2166,41,44,0.834944,FRC3,0.0,1.690039991091642,6.75
142_11_50,12:27:13,12:27:13,2167,14,DC4415,28.556475,76.936796,Hasanpur Village,2167,41,44,0.834944,FRC3,0.0,0.7676925380059371,3.066666666666667
142_11_50,12:31:20,12:31:20,2168,15,DC4416,28.548826,76.930857,Devta Wala Mandir,2168,41,44,0.834944,FRC3,0.0,1.027809121584014,4.116666666666666
142_11_50,12:37:36,12:37:36,2169,16,DC4417,28.536825,76.922412,Ghuman Hera More / Shikarpur Crossing,2169,41,44,0.834944,FRC3,0.0,1.5659116348922697,6.266666666666667
142_11_50,12:39:44,12:39:44,2170,17,DC4791,28.5326827,76.9196563,Ghuman Hera Village Main Road,2170,41,44,0.834944,FRC3,0.0,0.5324460644575495,2.1333333333333333
142_11_50,12:41:39,12:41:39,2171,18,DC4429,28.534088,76.915012,Ghuman Hera DTC Depot Crossing,2171,41,44,0.834944,FRC3,0.0,0.48049492789431475,1.9166666666666667
142_11_50,12:43:55,12:43:55,2172,19,DC4013,28.5352,76.909367,Jhul-Jhuli Check Post / Ghumanhera Crossing,2172,42,42,1.0,FRC5,0.0,0.5660666354440679,2.2666666666666666
142_11_50,12:45:44,12:45:44,2173,20,DC4014,28.53162,76.907067,Jhuljhuli Crossing,2173,42,42,1.0,FRC5,0.0,0.4561754051693519,1.8166666666666667
142_11_50,12:48:21,12:48:21,2174,21,DC4015,28.526609,76.903562,Rawta Village,2174,34,34,1.0,FRC3,0.0,0.6527739955192993,2.6166666666666667
142_11_50,12:54:41,12:54:41,2175,22,DC4787,28.5253328,76.8874616,Amrawati Piyau Galib Pur Road,2175,48,48,1.0,FRC4,0.0,1.5822436623266276,6.333333333333333
142_11_50,12:57:43,12:57:43,2176,23,DC4789,28.531301,76.883663,Galib Pur Piyau,2176,48,48,1.0,FRC4,0.0,0.7587770331358497,3.033333333333333
142_11_50,12:58:58,12:58:58,2177,24,DC4785,28.529556,76.881142,Galib Pur Village,2177,48,48,1.0,FRC4,0.0,0.31350425850878233,1.25
142_12_19,12:20:11,12:20:11,148,1,DC3555,28.61448074,76.98106202,Jharoda Crossing,148,31,40,0.90254,FRC2,0.0,0.29747972176626325,1.1833333333333333
142_12_19,12:21:49,12:21:49,149,2,DC3556,28.61415,76.985217,Health Centre,149,17,24,1.0,FRC2,0.0,0.4080003892783314,1.6333333333333333
142_12_19,12:22:54,12:22:54,488,3,U00233,28.611746,76.985721,NajafGarh Delhi Gate,488,17,31,0.999548,FRC2,0.0,0.2709550241942649,1.0833333333333333
142_12_19,12:24:44,12:24:44,233,4,U00226,28.61031861,76.98133766,Police Station NajafGarh,233,25,37,0.985794,FRC2,0.0,0.4569544123278267,1.8333333333333333
142_12_19,12:26:10,12:26:10,915,5,U00193,28.61149114,76.97790955,Dhansa Stand,915,27,37,0.924857,FRC2,0.0,0.35957782857750537,1.4333333333333333
142_12_19,12:27:43,12:27:43,916,6,DC3547,28.610938,76.97401,Khera More,916,27,37,0.924857,FRC2,0.0,0.38627665986712667,1.55
142_12_19,12:29:46,12:29:46,2161,7,DC4783,28.606425,76.972858,Krishna Nagar / Gopal Nagar,2161,42,44,0.849355,FRC3,0.0,0.5127058644445781,2.05
142_12_19,12:33:51,12:33:51,2162,8,DC4410,28.5987726,76.96698094,Khera Village,2162,42,44,0.849355,FRC3,0.0,1.0245587045108486,4.083333333333333
142_12_19,12:35:08,12:35:08,3569,9,DC5497,28.596347,76.965226,Khera Village 2,3569,42,44,0.849355,FRC3,0.0,0.3189582796005639,1.2833333333333334
142_12_19,12:39:54,12:39:54,2163,10,DC4411,28.586969,76.959227,KharKhari Nahar / Khera Dabur,2163,42,44,0.849355,FRC3,0.0,1.1935722007050553,4.766666666666667
142_12_19,12:42:05,12:42:05,2164,11,DC4412,28.58215173,76.95808206,Surhera Crossing,2164,42,44,0.849355,FRC3,0.0,0.5455151284217342,2.183333333333333
142_12_19,12:46:24,12:46:24,2165,12,DC4413,28.573848,76.952387,Pandwala Crossing,2165,42,44,0.849355,FRC3,0.0,1.075809072386236,4.316666666666666
142_12_19,12:53:09,12:53:09,2166,13,DC4414,28.561696,76.941952,KharKhari Rondh,2166,42,44,0.849355,FRC3,0.0,1.690039991091642,6.75
142_12_19,12:56:13,12:56:13,2167,14,DC4415,28.556475,76.936796,Hasanpur Village,2167,42,44,0.849355,FRC3,0.0,0.7676925380059371,3.066666666666667
142_12_19,13:00:20,13:00:20,2168,15,DC4416,28.548826,76.930857,Devta Wala Mandir,2168,42,44,0.849355,FRC3,0.0,1.027809121584014,4.116666666666666
142_12_19,13:06:36,13:06:36,2169,16,DC4417,28.536825,76.922412,Ghuman Hera More / Shikarpur Crossing,2169,42,44,0.849355,FRC3,0.0,1.5659116348922697,6.266666666666667
142_12_19,13:08:44,13:08:44,2170,17,DC4791,28.5326827,76.9196563,Ghuman Hera Village Main Road,2170,42,44,0.849355,FRC3,0.0,0.5324460644575495,2.1333333333333333
142_12_19,13:10:39,13:10:39,2171,18,DC4429,28.534088,76.915012,Ghuman Hera DTC Depot Crossing,2171,42,44,0.849355,FRC3,0.0,0.48049492789431475,1.9166666666666667
142_12_19,13:12:55,13:12:55,2172,19,DC4013,28.5352,76.909367,Jhul-Jhuli Check Post / Ghumanhera Crossing,2172,42,42,1.0,FRC5,0.0,0.5660666354440679,2.2666666666666666
142_12_19,13:14:44,13:14:44,2173,20,DC4014,28.53162,76.907067,Jhuljhuli Crossing,2173,42,42,1.0,FRC5,0.0,0.4561754051693519,1.8166666666666667
142_12_19,13:17:21,13:17:21,2174,21,DC4015,28.526609,76.903562,Rawta Village,2174,34,34,1.0,FRC3,0.0,0.6527739955192993,2.6166666666666667
142_12_19,13:23:41,13:23:41,2175,22,DC4787,28.5253328,76.8874616,Amrawati Piyau Galib Pur Road,2175,48,48,1.0,FRC4,0.0,1.5822436623266276,6.333333333333333
142_12_19,13:26:43,13:26:43,2176,23,DC4789,28.531301,76.883663,Galib Pur Piyau,2176,48,48,1.0,FRC4,0.0,0.7587770331358497,3.033333333333333
142_12_19,13:27:58,13:27:58,2177,24,DC4785,28.529556,76.881142,Galib Pur Village,2177,48,48,1.0,FRC4,0.0,0.31350425850878233,1.25
142_12_50,12:51:11,12:51:11,148,1,DC3555,28.61448074,76.98106202,Jharoda Crossing,148,31,39,0.89828,FRC2,0.0,0.29747972176626325,1.1833333333333333
142_12_50,12:52:49,12:52:49,149,2,DC3556,28.61415,76.985217,Health Centre,149,17,24,1.0,FRC2,0.0,0.4080003892783314,1.6333333333333333
142_12_50,12:53:54,12:53:54,488,3,U00233,28.611746,76.985721,NajafGarh Delhi Gate,488,17,31,0.99923,FRC2,0.0,0.2709550241942649,1.0833333333333333
142_12_50,12:55:44,12:55:44,233,4,U00226,28.61031861,76.98133766,Police Station NajafGarh,233,25,37,0.985661,FRC2,0.0,0.4569544123278267,1.8333333333333333
142_12_50,12:57:10,12:57:10,915,5,U00193,28.61149114,76.97790955,Dhansa Stand,915,28,37,0.922143,FRC2,0.0,0.35957782857750537,1.4333333333333333
142_12_50,12:58:43,12:58:43,916,6,DC3547,28.610938,76.97401,Khera More,916,28,37,0.922143,FRC2,0.0,0.38627665986712667,1.55
142_12_50,13:00:46,13:00:46,2161,7,DC4783,28.606425,76.972858,Krishna Nagar / Gopal Nagar,2161,42,44,0.847567,FRC3,0.0,0.5127058644445781,2.05
142_12_50,13:04:51,13:04:51,2162,8,DC4410,28.5987726,76.96698094,Khera Village,2162,42,44,0.847567,FRC3,0.0,1.0245587045108486,4.083333333333333
142_12_50,13:06:08,13:06:08,3569,9,DC5497,28.596347,76.965226,Khera Village 2,3569,42,44,0.847567,FRC3,0.0,0.3189582796005639,1.2833333333333334
142_12_50,13:10:54,13:10:54,2163,10,DC4411,28.586969,76.959227,KharKhari Nahar / Khera Dabur,2163,42,44,0.847567,FRC3,0.0,1.1935722007050553,4.766666666666667
142_12_50,13:13:05,13:13:05,2164,11,DC4412,28.58215173,76.95808206,Surhera Crossing,2164,42,44,0.847567,FRC3,0.0,0.5455151284217342,2.183333333333333
142_12_50,13:17:24,13:17:24,2165,12,DC4413,28.573848,76.952387,Pandwala Crossing,2165,42,44,0.847567,FRC3,0.0,1.075809072386236,4.316666666666666
142_12_50,13:24:09,13:24:09,2166,13,DC4414,28.561696,76.941952,KharKhari Rondh,2166,42,44,0.847567,FRC3,0.0,1.690039991091642,6.75
142_12_50,13:27:13,13:27:13,2167,14,DC4415,28.556475,76.936796,Hasanpur Village,2167,42,44,0.847567,FRC3,0.0,0.7676925380059371,3.066666666666667
142_12_50,13:31:20,13:31:20,2168,15,DC4416,28.548826,76.930857,Devta Wala Mandir,2168,42,44,0.847567,FRC3,0.0,1.027809121584014,4.116666666666666
142_12_50,13:37:36,13:37:36,2169,16,DC4417,28.536825,76.922412,Ghuman Hera More / Shikarpur Crossing,2169,42,44,0.847567,FRC3,0.0,1.5659116348922697,6.266666666666667
142_12_50,13:39:44,13:39:44,2170,17,DC4791,28.5326827,76.9196563,Ghuman Hera Village Main Road,2170,42,44,0.847567,FRC3,0.0,0.5324460644575495,2.1333333333333333
142_12_50,13:41:39,13:41:39,2171,18,DC4429,28.534088,76.915012,Ghuman Hera DTC Depot Crossing,2171,42,44,0.847567,FRC3,0.0,0.48049492789431475,1.9166666666666667
142_12_50,13:43:55,13:43:55,2172,19,DC4013,28.5352,76.909367,Jhul-Jhuli Check Post / Ghumanhera Crossing,2172,42,42,1.0,FRC5,0.0,0.5660666354440679,2.2666666666666666
142_12_50,13:45:44,13:45:44,2173,20,DC4014,28.53162,76.907067,Jhuljhuli Crossing,2173,42,42,1.0,FRC5,0.0,0.4561754051693519,1.8166666666666667
142_12_50,13:48:21,13:48:21,2174,21,DC4015,28.526609,76.903562,Rawta Village,2174,34,34,1.0,FRC3,0.0,0.6527739955192993,2.6166666666666667
142_12_50,13:54:41,13:54:41,2175,22,DC4787,28.5253328,76.8874616,Amrawati Piyau Galib Pur Road,2175,48,48,1.0,FRC4,0.0,1.5822436623266276,6.333333333333333
142_12_50,13:57:43,13:57:43,2176,23,DC4789,28.531301,76.883663,Galib Pur Piyau,2176,48,48,1.0,FRC4,0.0,0.7587770331358497,3.033333333333333
142_12_50,13:58:58,13:58:58,2177,24,DC4785,28.529556,76.881142,Galib Pur Village,2177,48,48,1.0,FRC4,0.0,0.31350425850878233,1.25
142_12_52,12:53:11,12:53:11,148,1,DC3555,28.61448074,76.98106202,Jharoda Crossing,148,31,40,0.90254,FRC2,0.0,0.29747972176626325,1.1833333333333333
142_12_52,12:54:49,12:54:49,149,2,DC3556,28.61415,76.985217,Health Centre,149,17,24,1.0,FRC2,0.0,0.4080003892783314,1.6333333333333333
142_12_52,12:55:54,12:55:54,488,3,U00233,28.611746,76.985721,NajafGarh Delhi Gate,488,17,31,0.999548,FRC2,0.0,0.2709550241942649,1.0833333333333333
142_12_52,12:57:44,12:57:44,233,4,U00226,28.61031861,76.98133766,Police Station NajafGarh,233,25,37,0.985794,FRC2,0.0,0.4569544123278267,1.8333333333333333
142_12_52,12:59:10,12:59:10,915,5,U00193,28.61149114,76.97790955,Dhansa Stand,915,27,37,0.924857,FRC2,0.0,0.35957782857750537,1.4333333333333333
142_12_52,13:00:43,13:00:43,916,6,DC3547,28.610938,76.97401,Khera More,916,27,37,0.924857,FRC2,0.0,0.38627665986712667,1.55
142_12_52,13:02:46,13:02:46,2161,7,DC4783,28.606425,76.972858,Krishna Nagar / Gopal Nagar,2161,42,44,0.849355,FRC3,0.0,0.5127058644445781,2.05
142_12_52,13:06:51,13:06:51,2162,8,DC4410,28.5987726,76.96698094,Khera Village,2162,42,44,0.849355,FRC3,0.0,1.0245587045108486,4.083333333333333
142_12_52,13:08:08,13:08:08,3569,9,DC5497,28.596347,76.965226,Khera Village 2,3569,42,44,0.849355,FRC3,0.0,0.3189582796005639,1.2833333333333334
142_12_52,13:12:54,13:12:54,2163,10,DC4411,28.586969,76.959227,KharKhari Nahar / Khera Dabur,2163,42,44,0.849355,FRC3,0.0,1.1935722007050553,4.766666666666667
142_12_52,13:15:05,13:15:05,2164,11,DC4412,28.58215173,76.95808206,Surhera Crossing,2164,42,44,0.849355,FRC3,0.0,0.5455151284217342,2.183333333333333
142_12_52,13:19:24,13:19:24,2165,12,DC4413,28.573848,76.952387,Pandwala Crossing,2165,42,44,0.849355,FRC3,0.0,1.075809072386236,4.316666666666666
142_12_52,13:26:09,13:26:09,2166,13,DC4414,28.561696,76.941952,KharKhari Rondh,2166,42,44,0.849355,FRC3,0.0,1.690039991091642,6.75
142_12_52,13:29:13,13:29:13,2167,14,DC4415,28.556475,76.936796,Hasanpur Village,2167,42,44,0.849355,FRC3,0.0,0.7676925380059371,3.066666666666667
142_12_52,13:33:20,13:33:20,2168,15,DC4416,28.548826,76.930857,Devta Wala Mandir,2168,42,44,0.849355,FRC3,0.0,1.027809121584014,4.116666666666666
142_12_52,13:39:36,13:39:36,2169,16,DC4417,28.536825,76.922412,Ghuman Hera More / Shikarpur Crossing,2169,42,44,0.849355,FRC3,0.0,1.5659116348922697,6.266666666666667
142_12_52,13:41:44,13:41:44,2170,17,DC4791,28.5326827,76.9196563,Ghuman Hera Village Main Road,2170,42,44,0.849355,FRC3,0.0,0.5324460644575495,2.1333333333333333
142_12_52,13:43:39,13:43:39,2171,18,DC4429,28.534088,76.915012,Ghuman Hera DTC Depot Crossing,2171,42,44,0.849355,FRC3,0.0,0.48049492789431475,1.9166666666666667
142_12_52,13:45:55,13:45:55,2172,19,DC4013,28.5352,76.909367,Jhul-Jhuli Check Post / Ghumanhera Crossing,2172,42,42,1.0,FRC5,0.0,0.5660666354440679,2.2666666666666666
142_12_52,13:47:44,13:47:44,2173,20,DC4014,28.53162,76.907067,Jhuljhuli Crossing,2173,42,42,1.0,FRC5,0.0,0.4561754051693519,1.8166666666666667
142_12_52,13:50:21,13:50:21,2174,21,DC4015,28.526609,76.903562,Rawta Village,2174,34,34,1.0,FRC3,0.0,0.6527739955192993,2.6166666666666667
142_12_52,13:56:41,13:56:41,2175,22,DC4787,28.5253328,76.8874616,Amrawati Piyau Galib Pur Road,2175,48,48,1.0,FRC4,0.0,1.5822436623266276,6.333333333333333
142_12_52,13:59:43,13:59:43,2176,23,DC4789,28.531301,76.883663,Galib Pur Piyau,2176,48,48,1.0,FRC4,0.0,0.7587770331358497,3.033333333333333
142_12_52,14:00:58,14:00:58,2177,24,DC4785,28.529556,76.881142,Galib Pur Village,2177,48,48,1.0,FRC4,0.0,0.31350425850878233,1.25
142_14_00,14:01:11,14:01:11,148,1,DC3555,28.61448074,76.98106202,Jharoda Crossing,148,31,39,0.89828,FRC2,0.0,0.29747972176626325,1.1833333333333333
142_14_00,14:02:49,14:02:49,149,2,DC3556,28.61415,76.985217,Health Centre,149,17,24,1.0,FRC2,0.0,0.4080003892783314,1.6333333333333333
142_14_00,14:03:54,14:03:54,488,3,U00233,28.611746,76.985721,NajafGarh Delhi Gate,488,17,31,0.99923,FRC2,0.0,0.2709550241942649,1.0833333333333333
142_14_00,14:05:44,14:05:44,233,4,U00226,28.61031861,76.98133766,Police Station NajafGarh,233,25,37,0.985661,FRC2,0.0,0.4569544123278267,1.8333333333333333
142_14_00,14:07:10,14:07:10,915,5,U00193,28.61149114,76.97790955,Dhansa Stand,915,28,37,0.922143,FRC2,0.0,0.35957782857750537,1.4333333333333333
142_14_00,14:08:43,14:08:43,916,6,DC3547,28.610938,76.97401,Khera More,916,28,37,0.922143,FRC2,0.0,0.38627665986712667,1.55
142_14_00,14:10:46,14:10:46,2161,7,DC4783,28.606425,76.972858,Krishna Nagar / Gopal Nagar,2161,42,44,0.847567,FRC3,0.0,0.5127058644445781,2.05
142_14_00,14:14:51,14:14:51,2162,8,DC4410,28.5987726,76.96698094,Khera Village,2162,42,44,0.847567,FRC3,0.0,1.0245587045108486,4.083333333333333
142_14_00,14:16:08,14:16:08,3569,9,DC5497,28.596347,76.965226,Khera Village 2,3569,42,44,0.847567,FRC3,0.0,0.3189582796005639,1.2833333333333334
142_14_00,14:20:54,14:20:54,2163,10,DC4411,28.586969,76.959227,KharKhari Nahar / Khera Dabur,2163,42,44,0.847567,FRC3,0.0,1.1935722007050553,4.766666666666667
142_14_00,14:23:05,14:23:05,2164,11,DC4412,28.58215173,76.95808206,Surhera Crossing,2164,42,44,0.847567,FRC3,0.0,0.5455151284217342,2.183333333333333
142_14_00,14:27:24,14:27:24,2165,12,DC4413,28.573848,76.952387,Pandwala Crossing,2165,42,44,0.847567,FRC3,0.0,1.075809072386236,4.316666666666666
142_14_00,14:34:09,14:34:09,2166,13,DC4414,28.561696,76.941952,KharKhari Rondh,2166,42,44,0.847567,FRC3,0.0,1.690039991091642,6.75
142_14_00,14:37:13,14:37:13,2167,14,DC4415,28.556475,76.936796,Hasanpur Village,2167,42,44,0.847567,FRC3,0.0,0.7676925380059371,3.066666666666667
142_14_00,14:41:20,14:41:20,2168,15,DC4416,28.548826,76.930857,Devta Wala Mandir,2168,42,44,0.847567,FRC3,0.0,1.027809121584014,4.116666666666666
142_14_00,14:47:36,14:47:36,2169,16,DC4417,28.536825,76.922412,Ghuman Hera More / Shikarpur Crossing,2169,42,44,0.847567,FRC3,0.0,1.5659116348922697,6.266666666666667
142_14_00,14:49:44,14:49:44,2170,17,DC4791,28.5326827,76.9196563,Ghuman Hera Village Main Road,2170,42,44,0.847567,FRC3,0.0,0.5324460644575495,2.1333333333333333
142_14_00,14:51:39,14:51:39,2171,18,DC4429,28.534088,76.915012,Ghuman Hera DTC Depot Crossing,2171,42,44,0.847567,FRC3,0.0,0.48049492789431475,1.9166666666666667
142_14_00,14:53:55,14:53:55,2172,19,DC4013,28.5352,76.909367,Jhul-Jhuli Check Post / Ghumanhera Crossing,2172,42,42,1.0,FRC5,0.0,0.5660666354440679,2.2666666666666666
142_14_00,14:55:44,14:55:44,2173,20,DC4014,28.53162,76.907067,Jhuljhuli Crossing,2173,42,42,1.0,FRC5,0.0,0.4561754051693519,1.8166666666666667
142_14_00,14:58:21,14:58:21,2174,21,DC4015,28.526609,76.903562,Rawta Village,2174,34,34,1.0,FRC3,0.0,0.6527739955192993,2.6166666666666667
142_14_00,15:04:41,15:04:41,2175,22,DC4787,28.5253328,76.8874616,Amrawati Piyau Galib Pur Road,2175,48,48,1.0,FRC4,0.0,1.5822436623266276,6.333333333333333
142_14_00,15:07:43,15:07:43,2176,23,DC4789,28.531301,76.883663,Galib Pur Piyau,2176,48,48,1.0,FRC4,0.0,0.7587770331358497,3.033333333333333
142_14_00,15:08:58,15:08:58,2177,24,DC4785,28.529556,76.881142,Galib Pur Village,2177,48,48,1.0,FRC4,0.0,0.31350425850878233,1.25
142_16_07,16:08:11,16:08:11,148,1,DC3555,28.61448074,76.98106202,Jharoda Crossing,148,31,40,0.90254,FRC2,0.0,0.29747972176626325,1.1833333333333333
142_16_07,16:09:49,16:09:49,149,2,DC3556,28.61415,76.985217,Health Centre,149,17,24,1.0,FRC2,0.0,0.4080003892783314,1.6333333333333333
142_16_07,16:10:54,16:10:54,488,3,U00233,28.611746,76.985721,NajafGarh Delhi Gate,488,17,31,0.999548,FRC2,0.0,0.2709550241942649,1.0833333333333333
142_16_07,16:12:44,16:12:44,233,4,U00226,28.61031861,76.98133766,Police Station NajafGarh,233,25,37,0.985794,FRC2,0.0,0.4569544123278267,1.8333333333333333
142_16_07,16:14:10,16:14:10,915,5,U00193,28.61149114,76.97790955,Dhansa Stand,915,27,37,0.924857,FRC2,0.0,0.35957782857750537,1.4333333333333333
142_16_07,16:15:43,16:15:43,916,6,DC3547,28.610938,76.97401,Khera More,916,27,37,0.924857,FRC2,0.0,0.38627665986712667,1.55
142_16_07,16:17:46,16:17:46,2161,7,DC4783,28.606425,76.972858,Krishna Nagar / Gopal Nagar,2161,42,44,0.849355,FRC3,0.0,0.5127058644445781,2.05
142_16_07,16:21:51,16:21:51,2162,8,DC4410,28.5987726,76.96698094,Khera Village,2162,42,44,0.849355,FRC3,0.0,1.0245587045108486,4.083333333333333
142_16_07,16:23:08,16:23:08,3569,9,DC5497,28.596347,76.965226,Khera Village 2,3569,42,44,0.849355,FRC3,0.0,0.3189582796005639,1.2833333333333334
142_16_07,16:27:54,16:27:54,2163,10,DC4411,28.586969,76.959227,KharKhari Nahar / Khera Dabur,2163,42,44,0.849355,FRC3,0.0,1.1935722007050553,4.766666666666667
142_16_07,16:30:05,16:30:05,2164,11,DC4412,28.58215173,76.95808206,Surhera Crossing,2164,42,44,0.849355,FRC3,0.0,0.5455151284217342,2.183333333333333
142_16_07,16:34:24,16:34:24,2165,12,DC4413,28.573848,76.952387,Pandwala Crossing,2165,42,44,0.849355,FRC3,0.0,1.075809072386236,4.316666666666666
142_16_07,16:41:09,16:41:09,2166,13,DC4414,28.561696,76.941952,KharKhari Rondh,2166,42,44,0.849355,FRC3,0.0,1.690039991091642,6.75
142_16_07,16:44:13,16:44:13,2167,14,DC4415,28.556475,76.936796,Hasanpur Village,2167,42,44,0.849355,FRC3,0.0,0.7676925380059371,3.066666666666667
142_16_07,16:48:20,16:48:20,2168,15,DC4416,28.548826,76.930857,Devta Wala Mandir,2168,42,44,0.849355,FRC3,0.0,1.027809121584014,4.116666666666666
142_16_07,16:54:36,16:54:36,2169,16,DC4417,28.536825,76.922412,Ghuman Hera More / Shikarpur Crossing,2169,42,44,0.849355,FRC3,0.0,1.5659116348922697,6.266666666666667
142_16_07,16:56:44,16:56:44,2170,17,DC4791,28.5326827,76.9196563,Ghuman Hera Village Main Road,2170,42,44,0.849355,FRC3,0.0,0.5324460644575495,2.1333333333333333
142_16_07,16:58:39,16:58:39,2171,18,DC4429,28.534088,76.915012,Ghuman Hera DTC Depot Crossing,2171,42,44,0.849355,FRC3,0.0,0.48049492789431475,1.9166666666666667
142_16_07,17:00:55,17:00:55,2172,19,DC4013,28.5352,76.909367,Jhul-Jhuli Check Post / Ghumanhera Crossing,2172,42,42,1.0,FRC5,0.0,0.5660666354440679,2.2666666666666666
142_16_07,17:02:44,17:02:44,2173,20,DC4014,28.53162,76.907067,Jhuljhuli Crossing,2173,42,42,1.0,FRC5,0.0,0.4561754051693519,1.8166666666666667
142_16_07,17:05:21,17:05:21,2174,21,DC4015,28.526609,76.903562,Rawta Village,2174,34,34,1.0,FRC3,0.0,0.6527739955192993,2.6166666666666667
142_16_07,17:11:41,17:11:41,2175,22,DC4787,28.5253328,76.8874616,Amrawati Piyau Galib Pur Road,2175,48,48,1.0,FRC4,0.0,1.5822436623266276,6.333333333333333
142_16_07,17:14:43,17:14:43,2176,23,DC4789,28.531301,76.883663,Galib Pur Piyau,2176,48,48,1.0,FRC4,0.0,0.7587770331358497,3.033333333333333
142_16_07,17:15:58,17:15:58,2177,24,DC4785,28.529556,76.881142,Galib Pur Village,2177,48,48,1.0,FRC4,0.0,0.31350425850878233,1.25
142_16_40,16:41:11,16:41:11,148,1,DC3555,28.61448074,76.98106202,Jharoda Crossing,148,31,40,0.902645,FRC2,0.0,0.29747972176626325,1.1833333333333333
142_16_40,16:42:49,16:42:49,149,2,DC3556,28.61415,76.985217,Health Centre,149,17,25,1.0,FRC2,0.0,0.4080003892783314,1.6333333333333333
142_16_40,16:43:54,16:43:54,488,3,U00233,28.611746,76.985721,NajafGarh Delhi Gate,488,17,31,0.999548,FRC2,0.0,0.2709550241942649,1.0833333333333333
142_16_40,16:45:44,16:45:44,233,4,U00226,28.61031861,76.98133766,Police Station NajafGarh,233,25,37,0.985702,FRC2,0.0,0.4569544123278267,1.8333333333333333
142_16_40,16:47:10,16:47:10,915,5,U00193,28.61149114,76.97790955,Dhansa Stand,915,27,37,0.927578,FRC2,0.0,0.35957782857750537,1.4333333333333333
142_16_40,16:48:43,16:48:43,916,6,DC3547,28.610938,76.97401,Khera More,916,27,37,0.927578,FRC2,0.0,0.38627665986712667,1.55
142_16_40,16:50:46,16:50:46,2161,7,DC4783,28.606425,76.972858,Krishna Nagar / Gopal Nagar,2161,41,44,0.834944,FRC3,0.0,0.5127058644445781,2.05
142_16_40,16:54:51,16:54:51,2162,8,DC4410,28.5987726,76.96698094,Khera Village,2162,41,44,0.834944,FRC3,0.0,1.0245587045108486,4.083333333333333
142_16_40,16:56:08,16:56:08,3569,9,DC5497,28.596347,76.965226,Khera Village 2,3569,41,44,0.834944,FRC3,0.0,0.3189582796005639,1.2833333333333334
142_16_40,17:00:54,17:00:54,2163,10,DC4411,28.586969,76.959227,KharKhari Nahar / Khera Dabur,2163,41,44,0.834944,FRC3,0.0,1.1935722007050553,4.766666666666667
142_16_40,17:03:05,17:03:05,2164,11,DC4412,28.58215173,76.95808206,Surhera Crossing,2164,41,44,0.834944,FRC3,0.0,0.5455151284217342,2.183333333333333
142_16_40,17:07:24,17:07:24,2165,12,DC4413,28.573848,76.952387,Pandwala Crossing,2165,41,44,0.834944,FRC3,0.0,1.075809072386236,4.316666666666666
142_16_40,17:14:09,17:14:09,2166,13,DC4414,28.561696,76.941952,KharKhari Rondh,2166,41,44,0.834944,FRC3,0.0,1.690039991091642,6.75
142_16_40,17:17:13,17:17:13,2167,14,DC4415,28.556475,76.936796,Hasanpur Village,2167,41,44,0.834944,FRC3,0.0,0.7676925380059371,3.066666666666667
142_16_40,17:21:20,17:21:20,2168,15,DC4416,28.548826,76.930857,Devta Wala Mandir,2168,41,44,0.834944,FRC3,0.0,1.027809121584014,4.116666666666666
142_16_40,17:27:36,17:27:36,2169,16,DC4417,28.536825,76.922412,Ghuman Hera More / Shikarpur Crossing,2169,41,44,0.834944,FRC3,0.0,1.5659116348922697,6.266666666666667
142_16_40,17:29:44,17:29:44,2170,17,DC4791,28.5326827,76.9196563,Ghuman Hera Village Main Road,2170,41,44,0.834944,FRC3,0.0,0.5324460644575495,2.1333333333333333
142_16_40,17:31:39,17:31:39,2171,18,DC4429,28.534088,76.915012,Ghuman Hera DTC Depot Crossing,2171,41,44,0.834944,FRC3,0.0,0.48049492789431475,1.9166666666666667
142_16_40,17:33:55,17:33:55,2172,19,DC4013,28.5352,76.909367,Jhul-Jhuli Check Post / Ghumanhera Crossing,2172,42,42,1.0,FRC5,0.0,0.5660666354440679,2.2666666666666666
142_16_40,17:35:44,17:35:44,2173,20,DC4014,28.53162,76.907067,Jhuljhuli Crossing,2173,42,42,1.0,FRC5,0.0,0.4561754051693519,1.8166666666666667
142_16_40,17:38:21,17:38:21,2174,21,DC4015,28.526609,76.903562,Rawta Village,2174,34,34,1.0,FRC3,0.0,0.6527739955192993,2.6166666666666667
142_16_40,17:44:41,17:44:41,2175,22,DC4787,28.5253328,76.8874616,Amrawati Piyau Galib Pur Road,2175,48,48,1.0,FRC4,0.0,1.5822436623266276,6.333333333333333
142_16_40,17:47:43,17:47:43,2176,23,DC4789,28.531301,76.883663,Galib Pur Piyau,2176,48,48,1.0,FRC4,0.0,0.7587770331358497,3.033333333333333
142_16_40,17:48:58,17:48:58,2177,24,DC4785,28.529556,76.881142,Galib Pur Village,2177,48,48,1.0,FRC4,0.0,0.31350425850878233,1.25
142_17_13,17:14:11,17:14:11,148,1,DC3555,28.61448074,76.98106202,Jharoda Crossing,148,31,40,0.902645,FRC2,0.0,0.29747972176626325,1.1833333333333333
142_17_13,17:15:49,17:15:49,149,2,DC3556,28.61415,76.985217,Health Centre,149,17,25,1.0,FRC2,0.0,0.4080003892783314,1.6333333333333333
142_17_13,17:16:54,17:16:54,488,3,U00233,28.611746,76.985721,NajafGarh Delhi Gate,488,17,31,0.999548,FRC2,0.0,0.2709550241942649,1.0833333333333333
142_17_13,17:18:44,17:18:44,233,4,U00226,28.61031861,76.98133766,Police Station NajafGarh,233,25,37,0.985702,FRC2,0.0,0.4569544123278267,1.8333333333333333
142_17_13,17:20:10,17:20:10,915,5,U00193,28.61149114,76.97790955,Dhansa Stand,915,27,37,0.927578,FRC2,0.0,0.35957782857750537,1.4333333333333333
142_17_13,17:21:43,17:21:43,916,6,DC3547,28.610938,76.97401,Khera More,916,27,37,0.927578,FRC2,0.0,0.38627665986712667,1.55
142_17_13,17:23:46,17:23:46,2161,7,DC4783,28.606425,76.972858,Krishna Nagar / Gopal Nagar,2161,41,44,0.834944,FRC3,0.0,0.5127058644445781,2.05
142_17_13,17:27:51,17:27:51,2162,8,DC4410,28.5987726,76.96698094,Khera Village,2162,41,44,0.834944,FRC3,0.0,1.0245587045108486,4.083333333333333
142_17_13,17:29:08,17:29:08,3569,9,DC5497,28.596347,76.965226,Khera Village 2,3569,41,44,0.834944,FRC3,0.0,0.3189582796005639,1.2833333333333334
142_17_13,17:33:54,17:33:54,2163,10,DC4411,28.586969,76.959227,KharKhari Nahar / Khera Dabur,2163,41,44,0.834944,FRC3,0.0,1.1935722007050553,4.766666666666667
142_17_13,17:36:05,17:36:05,2164,11,DC4412,28.58215173,76.95808206,Surhera Crossing,2164,41,44,0.834944,FRC3,0.0,0.5455151284217342,2.183333333333333
142_17_13,17:40:24,17:40:24,2165,12,DC4413,28.573848,76.952387,Pandwala Crossing,2165,41,44,0.834944,FRC3,0.0,1.075809072386236,4.316666666666666
142_17_13,17:47:09,17:47:09,2166,13,DC4414,28.561696,76.941952,KharKhari Rondh,2166,41,44,0.834944,FRC3,0.0,1.690039991091642,6.75
142_17_13,17:50:13,17:50:13,2167,14,DC4415,28.556475,76.936796,Hasanpur Village,2167,41,44,0.834944,FRC3,0.0,0.7676925380059371,3.066666666666667
142_17_13,17:54:20,17:54:20,2168,15,DC4416,28.548826,76.930857,Devta Wala Mandir,2168,41,44,0.834944,FRC3,0.0,1.027809121584014,4.116666666666666
142_17_13,18:00:36,18:00:36,2169,16,DC4417,28.536825,76.922412,Ghuman Hera More / Shikarpur Crossing,2169,41,44,0.834944,FRC3,0.0,1.5659116348922697,6.266666666666667
142_17_13,18:02:44,18:02:44,2170,17,DC4791,28.5326827,76.9196563,Ghuman Hera Village Main Road,2170,41,44,0.834944,FRC3,0.0,0.5324460644575495,2.1333333333333333
142_17_13,18:04:39,18:04:39,2171,18,DC4429,28.534088,76.915012,Ghuman Hera DTC Depot Crossing,2171,41,44,0.834944,FRC3,0.0,0.48049492789431475,1.9166666666666667
142_17_13,18:06:55,18:06:55,2172,19,DC4013,28.5352,76.909367,Jhul-Jhuli Check Post / Ghumanhera Crossing,2172,42,42,1.0,FRC5,0.0,0.5660666354440679,2.2666666666666666
142_17_13,18:08:44,18:08:44,2173,20,DC4014,28.53162,76.907067,Jhuljhuli Crossing,2173,42,42,1.0,FRC5,0.0,0.4561754051693519,1.8166666666666667
142_17_13,18:11:21,18:11:21,2174,21,DC4015,28.526609,76.903562,Rawta Village,2174,34,34,1.0,FRC3,0.0,0.6527739955192993,2.6166666666666667
142_17_13,18:17:41,18:17:41,2175,22,DC4787,28.5253328,76.8874616,Amrawati Piyau Galib Pur Road,2175,48,48,1.0,FRC4,0.0,1.5822436623266276,6.333333333333333
142_17_13,18:20:43,18:20:43,2176,23,DC4789,28.531301,76.883663,Galib Pur Piyau,2176,48,48,1.0,FRC4,0.0,0.7587770331358497,3.033333333333333
142_17_13,18:21:58,18:21:58,2177,24,DC4785,28.529556,76.881142,Galib Pur Village,2177,48,48,1.0,FRC4,0.0,0.31350425850878233,1.25
142_17_46,17:47:11,17:47:11,148,1,DC3555,28.61448074,76.98106202,Jharoda Crossing,148,31,40,0.90254,FRC2,0.0,0.29747972176626325,1.1833333333333333
142_17_46,17:48:49,17:48:49,149,2,DC3556,28.61415,76.985217,Health Centre,149,17,24,1.0,FRC2,0.0,0.4080003892783314,1.6333333333333333
142_17_46,17:49:54,17:49:54,488,3,U00233,28.611746,76.985721,NajafGarh Delhi Gate,488,17,31,0.999548,FRC2,0.0,0.2709550241942649,1.0833333333333333
142_17_46,17:51:44,17:51:44,233,4,U00226,28.61031861,76.98133766,Police Station NajafGarh,233,25,37,0.985794,FRC2,0.0,0.4569544123278267,1.8333333333333333
142_17_46,17:53:10,17:53:10,915,5,U00193,28.61149114,76.97790955,Dhansa Stand,915,27,37,0.924857,FRC2,0.0,0.35957782857750537,1.4333333333333333
142_17_46,17:54:43,17:54:43,916,6,DC3547,28.610938,76.97401,Khera More,916,27,37,0.924857,FRC2,0.0,0.38627665986712667,1.55
142_17_46,17:56:46,17:56:46,2161,7,DC4783,28.606425,76.972858,Krishna Nagar / Gopal Nagar,2161,42,44,0.849355,FRC3,0.0,0.5127058644445781,2.05
142_17_46,18:00:51,18:00:51,2162,8,DC4410,28.5987726,76.96698094,Khera Village,2162,41,44,0.834944,FRC3,0.0,1.0245587045108486,4.083333333333333
142_17_46,18:02:08,18:02:08,3569,9,DC5497,28.596347,76.965226,Khera Village 2,3569,41,44,0.834944,FRC3,0.0,0.3189582796005639,1.2833333333333334
142_17_46,18:06:54,18:06:54,2163,10,DC4411,28.586969,76.959227,KharKhari Nahar / Khera Dabur,2163,41,44,0.834944,FRC3,0.0,1.1935722007050553,4.766666666666667
142_17_46,18:09:05,18:09:05,2164,11,DC4412,28.58215173,76.95808206,Surhera Crossing,2164,41,44,0.834944,FRC3,0.0,0.5455151284217342,2.183333333333333
142_17_46,18:13:24,18:13:24,2165,12,DC4413,28.573848,76.952387,Pandwala Crossing,2165,41,44,0.834944,FRC3,0.0,1.075809072386236,4.316666666666666
142_17_46,18:20:09,18:20:09,2166,13,DC4414,28.561696,76.941952,KharKhari Rondh,2166,41,44,0.834944,FRC3,0.0,1.690039991091642,6.75
142_17_46,18:23:13,18:23:13,2167,14,DC4415,28.556475,76.936796,Hasanpur Village,2167,41,44,0.834944,FRC3,0.0,0.7676925380059371,3.066666666666667
142_17_46,18:27:20,18:27:20,2168,15,DC4416,28.548826,76.930857,Devta Wala Mandir,2168,41,44,0.834944,FRC3,0.0,1.027809121584014,4.116666666666666
142_17_46,18:33:36,18:33:36,2169,16,DC4417,28.536825,76.922412,Ghuman Hera More / Shikarpur Crossing,2169,41,44,0.834944,FRC3,0.0,1.5659116348922697,6.266666666666667
142_17_46,18:35:44,18:35:44,2170,17,DC4791,28.5326827,76.9196563,Ghuman Hera Village Main Road,2170,41,44,0.834944,FRC3,0.0,0.5324460644575495,2.1333333333333333
142_17_46,18:37:39,18:37:39,2171,18,DC4429,28.534088,76.915012,Ghuman Hera DTC Depot Crossing,2171,41,44,0.834944,FRC3,0.0,0.48049492789431475,1.9166666666666667
142_17_46,18:39:55,18:39:55,2172,19,DC4013,28.5352,76.909367,Jhul-Jhuli Check Post / Ghumanhera Crossing,2172,42,42,1.0,FRC5,0.0,0.5660666354440679,2.2666666666666666
142_17_46,18:41:44,18:41:44,2173,20,DC4014,28.53162,76.907067,Jhuljhuli Crossing,2173,42,42,1.0,FRC5,0.0,0.4561754051693519,1.8166666666666667
142_17_46,18:44:21,18:44:21,2174,21,DC4015,28.526609,76.903562,Rawta Village,2174,34,34,1.0,FRC3,0.0,0.6527739955192993,2.6166666666666667
142_17_46,18:50:41,18:50:41,2175,22,DC4787,28.5253328,76.8874616,Amrawati Piyau Galib Pur Road,2175,48,48,1.0,FRC4,0.0,1.5822436623266276,6.333333333333333
142_17_46,18:53:43,18:53:43,2176,23,DC4789,28.531301,76.883663,Galib Pur Piyau,2176,48,48,1.0,FRC4,0.0,0.7587770331358497,3.033333333333333
142_17_46,18:54:58,18:54:58,2177,24,DC4785,28.529556,76.881142,Galib Pur Village,2177,48,48,1.0,FRC4,0.0,0.31350425850878233,1.25
142_18_19,18:20:11,18:20:11,148,1,DC3555,28.61448074,76.98106202,Jharoda Crossing,148,31,40,0.90254,FRC2,0.0,0.29747972176626325,1.1833333333333333
142_18_19,18:21:49,18:21:49,149,2,DC3556,28.61415,76.985217,Health Centre,149,17,24,1.0,FRC2,0.0,0.4080003892783314,1.6333333333333333
142_18_19,18:22:54,18:22:54,488,3,U00233,28.611746,76.985721,NajafGarh Delhi Gate,488,17,31,0.999548,FRC2,0.0,0.2709550241942649,1.0833333333333333
142_18_19,18:24:44,18:24:44,233,4,U00226,28.61031861,76.98133766,Police Station NajafGarh,233,25,37,0.985794,FRC2,0.0,0.4569544123278267,1.8333333333333333
142_18_19,18:26:10,18:26:10,915,5,U00193,28.61149114,76.97790955,Dhansa Stand,915,27,37,0.924857,FRC2,0.0,0.35957782857750537,1.4333333333333333
142_18_19,18:27:43,18:27:43,916,6,DC3547,28.610938,76.97401,Khera More,916,27,37,0.924857,FRC2,0.0,0.38627665986712667,1.55
142_18_19,18:29:46,18:29:46,2161,7,DC4783,28.606425,76.972858,Krishna Nagar / Gopal Nagar,2161,42,44,0.849355,FRC3,0.0,0.5127058644445781,2.05
142_18_19,18:33:51,18:33:51,2162,8,DC4410,28.5987726,76.96698094,Khera Village,2162,42,44,0.849355,FRC3,0.0,1.0245587045108486,4.083333333333333
142_18_19,18:35:08,18:35:08,3569,9,DC5497,28.596347,76.965226,Khera Village 2,3569,42,44,0.849355,FRC3,0.0,0.3189582796005639,1.2833333333333334
142_18_19,18:39:54,18:39:54,2163,10,DC4411,28.586969,76.959227,KharKhari Nahar / Khera Dabur,2163,42,44,0.849355,FRC3,0.0,1.1935722007050553,4.766666666666667
142_18_19,18:42:05,18:42:05,2164,11,DC4412,28.58215173,76.95808206,Surhera Crossing,2164,42,44,0.849355,FRC3,0.0,0.5455151284217342,2.183333333333333
142_18_19,18:46:24,18:46:24,2165,12,DC4413,28.573848,76.952387,Pandwala Crossing,2165,42,44,0.849355,FRC3,0.0,1.075809072386236,4.316666666666666
142_18_19,18:53:09,18:53:09,2166,13,DC4414,28.561696,76.941952,KharKhari Rondh,2166,42,44,0.849355,FRC3,0.0,1.690039991091642,6.75
142_18_19,18:56:13,18:56:13,2167,14,DC4415,28.556475,76.936796,Hasanpur Village,2167,42,44,0.849355,FRC3,0.0,0.7676925380059371,3.066666666666667
142_18_19,19:00:20,19:00:20,2168,15,DC4416,28.548826,76.930857,Devta Wala Mandir,2168,42,44,0.849355,FRC3,0.0,1.027809121584014,4.116666666666666
142_18_19,19:06:36,19:06:36,2169,16,DC4417,28.536825,76.922412,Ghuman Hera More / Shikarpur Crossing,2169,42,44,0.849355,FRC3,0.0,1.5659116348922697,6.266666666666667
142_18_19,19:08:44,19:08:44,2170,17,DC4791,28.5326827,76.9196563,Ghuman Hera Village Main Road,2170,42,44,0.849355,FRC3,0.0,0.5324460644575495,2.1333333333333333
142_18_19,19:10:39,19:10:39,2171,18,DC4429,28.534088,76.915012,Ghuman Hera DTC Depot Crossing,2171,42,44,0.849355,FRC3,0.0,0.48049492789431475,1.9166666666666667
142_18_19,19:12:55,19:12:55,2172,19,DC4013,28.5352,76.909367,Jhul-Jhuli Check Post / Ghumanhera Crossing,2172,42,42,1.0,FRC5,0.0,0.5660666354440679,2.2666666666666666
142_18_19,19:14:44,19:14:44,2173,20,DC4014,28.53162,76.907067,Jhuljhuli Crossing,2173,42,42,1.0,FRC5,0.0,0.4561754051693519,1.8166666666666667
142_18_19,19:17:21,19:17:21,2174,21,DC4015,28.526609,76.903562,Rawta Village,2174,34,34,1.0,FRC3,0.0,0.6527739955192993,2.6166666666666667
142_18_19,19:23:41,19:23:41,2175,22,DC4787,28.5253328,76.8874616,Amrawati Piyau Galib Pur Road,2175,48,48,1.0,FRC4,0.0,1.5822436623266276,6.333333333333333
142_18_19,19:26:43,19:26:43,2176,23,DC4789,28.531301,76.883663,Galib Pur Piyau,2176,48,48,1.0,FRC4,0.0,0.7587770331358497,3.033333333333333
142_18_19,19:27:58,19:27:58,2177,24,DC4785,28.529556,76.881142,Galib Pur Village,2177,48,48,1.0,FRC4,0.0,0.31350425850878233,1.25
142_19_49,19:50:11,19:50:11,148,1,DC3555,28.61448074,76.98106202,Jharoda Crossing,148,31,40,0.90254,FRC2,0.0,0.29747972176626325,1.1833333333333333
142_19_49,19:51:49,19:51:49,149,2,DC3556,28.61415,76.985217,Health Centre,149,17,24,1.0,FRC2,0.0,0.4080003892783314,1.6333333333333333
142_19_49,19:52:54,19:52:54,488,3,U00233,28.611746,76.985721,NajafGarh Delhi Gate,488,17,31,0.999548,FRC2,0.0,0.2709550241942649,1.0833333333333333
142_19_49,19:54:44,19:54:44,233,4,U00226,28.61031861,76.98133766,Police Station NajafGarh,233,25,37,0.985794,FRC2,0.0,0.4569544123278267,1.8333333333333333
142_19_49,19:56:10,19:56:10,915,5,U00193,28.61149114,76.97790955,Dhansa Stand,915,27,37,0.924857,FRC2,0.0,0.35957782857750537,1.4333333333333333
142_19_49,19:57:43,19:57:43,916,6,DC3547,28.610938,76.97401,Khera More,916,27,37,0.924857,FRC2,0.0,0.38627665986712667,1.55
142_19_49,19:59:46,19:59:46,2161,7,DC4783,28.606425,76.972858,Krishna Nagar / Gopal Nagar,2161,42,44,0.849355,FRC3,0.0,0.5127058644445781,2.05
142_19_49,20:03:51,20:03:51,2162,8,DC4410,28.5987726,76.96698094,Khera Village,2162,42,44,0.849355,FRC3,0.0,1.0245587045108486,4.083333333333333
142_19_49,20:05:08,20:05:08,3569,9,DC5497,28.596347,76.965226,Khera Village 2,3569,42,44,0.849355,FRC3,0.0,0.3189582796005639,1.2833333333333334
142_19_49,20:09:54,20:09:54,2163,10,DC4411,28.586969,76.959227,KharKhari Nahar / Khera Dabur,2163,42,44,0.849355,FRC3,0.0,1.1935722007050553,4.766666666666667
142_19_49,20:12:05,20:12:05,2164,11,DC4412,28.58215173,76.95808206,Surhera Crossing,2164,42,44,0.849355,FRC3,0.0,0.5455151284217342,2.183333333333333
142_19_49,20:16:24,20:16:24,2165,12,DC4413,28.573848,76.952387,Pandwala Crossing,2165,42,44,0.849355,FRC3,0.0,1.075809072386236,4.316666666666666
142_19_49,20:23:09,20:23:09,2166,13,DC4414,28.561696,76.941952,KharKhari Rondh,2166,42,44,0.849355,FRC3,0.0,1.690039991091642,6.75
142_19_49,20:26:13,20:26:13,2167,14,DC4415,28.556475,76.936796,Hasanpur Village,2167,42,44,0.849355,FRC3,0.0,0.7676925380059371,3.066666666666667
142_19_49,20:30:20,20:30:20,2168,15,DC4416,28.548826,76.930857,Devta Wala Mandir,2168,42,44,0.849355,FRC3,0.0,1.027809121584014,4.116666666666666
142_19_49,20:36:36,20:36:36,2169,16,DC4417,28.536825,76.922412,Ghuman Hera More / Shikarpur Crossing,2169,42,44,0.849355,FRC3,0.0,1.5659116348922697,6.266666666666667
142_19_49,20:38:44,20:38:44,2170,17,DC4791,28.5326827,76.9196563,Ghuman Hera Village Main Road,2170,42,44,0.849355,FRC3,0.0,0.5324460644575495,2.1333333333333333
142_19_49,20:40:39,20:40:39,2171,18,DC4429,28.534088,76.915012,Ghuman Hera DTC Depot Crossing,2171,42,44,0.849355,FRC3,0.0,0.48049492789431475,1.9166666666666667
142_19_49,20:42:55,20:42:55,2172,19,DC4013,28.5352,76.909367,Jhul-Jhuli Check Post / Ghumanhera Crossing,2172,42,42,1.0,FRC5,0.0,0.5660666354440679,2.2666666666666666
142_19_49,20:44:44,20:44:44,2173,20,DC4014,28.53162,76.907067,Jhuljhuli Crossing,2173,42,42,1.0,FRC5,0.0,0.4561754051693519,1.8166666666666667
142_19_49,20:47:21,20:47:21,2174,21,DC4015,28.526609,76.903562,Rawta Village,2174,34,34,1.0,FRC3,0.0,0.6527739955192993,2.6166666666666667
142_19_49,20:53:41,20:53:41,2175,22,DC4787,28.5253328,76.8874616,Amrawati Piyau Galib Pur Road,2175,48,48,1.0,FRC4,0.0,1.5822436623266276,6.333333333333333
142_19_49,20:56:43,20:56:43,2176,23,DC4789,28.531301,76.883663,Galib Pur Piyau,2176,48,48,1.0,FRC4,0.0,0.7587770331358497,3.033333333333333
142_19_49,20:57:58,20:57:58,2177,24,DC4785,28.529556,76.881142,Galib Pur Village,2177,48,48,1.0,FRC4,0.0,0.31350425850878233,1.25
142_20_50,20:51:11,20:51:11,148,1,DC3555,28.61448074,76.98106202,Jharoda Crossing,148,31,40,0.902645,FRC2,0.0,0.29747972176626325,1.1833333333333333
142_20_50,20:52:49,20:52:49,149,2,DC3556,28.61415,76.985217,Health Centre,149,17,25,1.0,FRC2,0.0,0.4080003892783314,1.6333333333333333
142_20_50,20:53:54,20:53:54,488,3,U00233,28.611746,76.985721,NajafGarh Delhi Gate,488,17,31,0.999548,FRC2,0.0,0.2709550241942649,1.0833333333333333
142_20_50,20:55:44,20:55:44,233,4,U00226,28.61031861,76.98133766,Police Station NajafGarh,233,25,37,0.985702,FRC2,0.0,0.4569544123278267,1.8333333333333333
142_20_50,20:57:10,20:57:10,915,5,U00193,28.61149114,76.97790955,Dhansa Stand,915,27,37,0.927578,FRC2,0.0,0.35957782857750537,1.4333333333333333
142_20_50,20:58:43,20:58:43,916,6,DC3547,28.610938,76.97401,Khera More,916,27,37,0.927578,FRC2,0.0,0.38627665986712667,1.55
142_20_50,21:00:46,21:00:46,2161,7,DC4783,28.606425,76.972858,Krishna Nagar / Gopal Nagar,2161,41,44,0.834944,FRC3,0.0,0.5127058644445781,2.05
142_20_50,21:04:51,21:04:51,2162,8,DC4410,28.5987726,76.96698094,Khera Village,2162,41,44,0.834944,FRC3,0.0,1.0245587045108486,4.083333333333333
142_20_50,21:06:08,21:06:08,3569,9,DC5497,28.596347,76.965226,Khera Village 2,3569,41,44,0.834944,FRC3,0.0,0.3189582796005639,1.2833333333333334
142_20_50,21:10:54,21:10:54,2163,10,DC4411,28.586969,76.959227,KharKhari Nahar / Khera Dabur,2163,41,44,0.834944,FRC3,0.0,1.1935722007050553,4.766666666666667
142_20_50,21:13:05,21:13:05,2164,11,DC4412,28.58215173,76.95808206,Surhera Crossing,2164,41,44,0.834944,FRC3,0.0,0.5455151284217342,2.183333333333333
142_20_50,21:17:24,21:17:24,2165,12,DC4413,28.573848,76.952387,Pandwala Crossing,2165,41,44,0.834944,FRC3,0.0,1.075809072386236,4.316666666666666
142_20_50,21:24:09,21:24:09,2166,13,DC4414,28.561696,76.941952,KharKhari Rondh,2166,41,44,0.834944,FRC3,0.0,1.690039991091642,6.75
142_20_50,21:27:13,21:27:13,2167,14,DC4415,28.556475,76.936796,Hasanpur Village,2167,41,44,0.834944,FRC3,0.0,0.7676925380059371,3.066666666666667
142_20_50,21:31:20,21:31:20,2168,15,DC4416,28.548826,76.930857,Devta Wala Mandir,2168,41,44,0.834944,FRC3,0.0,1.027809121584014,4.116666666666666
142_20_50,21:37:36,21:37:36,2169,16,DC4417,28.536825,76.922412,Ghuman Hera More / Shikarpur Crossing,2169,41,44,0.834944,FRC3,0.0,1.5659116348922697,6.266666666666667
142_20_50,21:39:44,21:39:44,2170,17,DC4791,28.5326827,76.9196563,Ghuman Hera Village Main Road,2170,41,44,0.834944,FRC3,0.0,0.5324460644575495,2.1333333333333333
142_20_50,21:41:39,21:41:39,2171,18,DC4429,28.534088,76.915012,Ghuman Hera DTC Depot Crossing,2171,41,44,0.834944,FRC3,0.0,0.48049492789431475,1.9166666666666667
142_20_50,21:43:55,21:43:55,2172,19,DC4013,28.5352,76.909367,Jhul-Jhuli Check Post / Ghumanhera Crossing,2172,42,42,1.0,FRC5,0.0,0.5660666354440679,2.2666666666666666
142_20_50,21:45:44,21:45:44,2173,20,DC4014,28.53162,76.907067,Jhuljhuli Crossing,2173,42,42,1.0,FRC5,0.0,0.4561754051693519,1.8166666666666667
142_20_50,21:48:21,21:48:21,2174,21,DC4015,28.526609,76.903562,Rawta Village,2174,34,34,1.0,FRC3,0.0,0.6527739955192993,2.6166666666666667
142_20_50,21:54:41,21:54:41,2175,22,DC4787,28.5253328,76.8874616,Amrawati Piyau Galib Pur Road,2175,48,48,1.0,FRC4,0.0,1.5822436623266276,6.333333333333333
142_20_50,21:57:43,21:57:43,2176,23,DC4789,28.531301,76.883663,Galib Pur Piyau,2176,48,48,1.0,FRC4,0.0,0.7587770331358497,3.033333333333333
142_20_50,21:58:58,21:58:58,2177,24,DC4785,28.529556,76.881142,Galib Pur Village,2177,48,48,1.0,FRC4,0.0,0.31350425850878233,1.25
142_20_51,20:52:11,20:52:11,148,1,DC3555,28.61448074,76.98106202,Jharoda Crossing,148,31,40,0.902645,FRC2,0.0,0.29747972176626325,1.1833333333333333
142_20_51,20:53:49,20:53:49,149,2,DC3556,28.61415,76.985217,Health Centre,149,17,25,1.0,FRC2,0.0,0.4080003892783314,1.6333333333333333
142_20_51,20:54:54,20:54:54,488,3,U00233,28.611746,76.985721,NajafGarh Delhi Gate,488,17,31,0.999548,FRC2,0.0,0.2709550241942649,1.0833333333333333
142_20_51,20:56:44,20:56:44,233,4,U00226,28.61031861,76.98133766,Police Station NajafGarh,233,25,37,0.985702,FRC2,0.0,0.4569544123278267,1.8333333333333333
142_20_51,20:58:10,20:58:10,915,5,U00193,28.61149114,76.97790955,Dhansa Stand,915,27,37,0.927578,FRC2,0.0,0.35957782857750537,1.4333333333333333
142_20_51,20:59:43,20:59:43,916,6,DC3547,28.610938,76.97401,Khera More,916,27,37,0.927578,FRC2,0.0,0.38627665986712667,1.55
142_20_51,21:01:46,21:01:46,2161,7,DC4783,28.606425,76.972858,Krishna Nagar / Gopal Nagar,2161,41,44,0.834944,FRC3,0.0,0.5127058644445781,2.05
142_20_51,21:05:51,21:05:51,2162,8,DC4410,28.5987726,76.96698094,Khera Village,2162,41,44,0.834944,FRC3,0.0,1.0245587045108486,4.083333333333333
142_20_51,21:07:08,21:07:08,3569,9,DC5497,28.596347,76.965226,Khera Village 2,3569,41,44,0.834944,FRC3,0.0,0.3189582796005639,1.2833333333333334
142_20_51,21:11:54,21:11:54,2163,10,DC4411,28.586969,76.959227,KharKhari Nahar / Khera Dabur,2163,41,44,0.834944,FRC3,0.0,1.1935722007050553,4.766666666666667
142_20_51,21:14:05,21:14:05,2164,11,DC4412,28.58215173,76.95808206,Surhera Crossing,2164,41,44,0.834944,FRC3,0.0,0.5455151284217342,2.183333333333333
142_20_51,21:18:24,21:18:24,2165,12,DC4413,28.573848,76.952387,Pandwala Crossing,2165,41,44,0.834944,FRC3,0.0,1.075809072386236,4.316666666666666
142_20_51,21:25:09,21:25:09,2166,13,DC4414,28.561696,76.941952,KharKhari Rondh,2166,41,44,0.834944,FRC3,0.0,1.690039991091642,6.75
142_20_51,21:28:13,21:28:13,2167,14,DC4415,28.556475,76.936796,Hasanpur Village,2167,41,44,0.834944,FRC3,0.0,0.7676925380059371,3.066666666666667
142_20_51,21:32:20,21:32:20,2168,15,DC4416,28.548826,76.930857,Devta Wala Mandir,2168,41,44,0.834944,FRC3,0.0,1.027809121584014,4.116666666666666
142_20_51,21:38:36,21:38:36,2169,16,DC4417,28.536825,76.922412,Ghuman Hera More / Shikarpur Crossing,2169,41,44,0.834944,FRC3,0.0,1.5659116348922697,6.266666666666667
142_20_51,21:40:44,21:40:44,2170,17,DC4791,28.5326827,76.9196563,Ghuman Hera Village Main Road,2170,41,44,0.834944,FRC3,0.0,0.5324460644575495,2.1333333333333333
142_20_51,21:42:39,21:42:39,2171,18,DC4429,28.534088,76.915012,Ghuman Hera DTC Depot Crossing,2171,41,44,0.834944,FRC3,0.0,0.48049492789431475,1.9166666666666667
142_20_51,21:44:55,21:44:55,2172,19,DC4013,28.5352,76.909367,Jhul-Jhuli Check Post / Ghumanhera Crossing,2172,42,42,1.0,FRC5,0.0,0.5660666354440679,2.2666666666666666
142_20_51,21:46:44,21:46:44,2173,20,DC4014,28.53162,76.907067,Jhuljhuli Crossing,2173,42,42,1.0,FRC5,0.0,0.4561754051693519,1.8166666666666667
142_20_51,21:49:21,21:49:21,2174,21,DC4015,28.526609,76.903562,Rawta Village,2174,34,34,1.0,FRC3,0.0,0.6527739955192993,2.6166666666666667
142_20_51,21:55:41,21:55:41,2175,22,DC4787,28.5253328,76.8874616,Amrawati Piyau Galib Pur Road,2175,48,48,1.0,FRC4,0.0,1.5822436623266276,6.333333333333333
142_20_51,21:58:43,21:58:43,2176,23,DC4789,28.531301,76.883663,Galib Pur Piyau,2176,48,48,1.0,FRC4,0.0,0.7587770331358497,3.033333333333333
142_20_51,21:59:58,21:59:58,2177,24,DC4785,28.529556,76.881142,Galib Pur Village,2177,48,48,1.0,FRC4,0.0,0.31350425850878233,1.25
142_21_05,21:06:11,21:06:11,148,1,DC3555,28.61448074,76.98106202,Jharoda Crossing,148,31,40,0.902645,FRC2,0.0,0.29747972176626325,1.1833333333333333
142_21_05,21:07:49,21:07:49,149,2,DC3556,28.61415,76.985217,Health Centre,149,17,25,1.0,FRC2,0.0,0.4080003892783314,1.6333333333333333
142_21_05,21:08:54,21:08:54,488,3,U00233,28.611746,76.985721,NajafGarh Delhi Gate,488,17,31,0.999548,FRC2,0.0,0.2709550241942649,1.0833333333333333
142_21_05,21:10:44,21:10:44,233,4,U00226,28.61031861,76.98133766,Police Station NajafGarh,233,25,37,0.985702,FRC2,0.0,0.4569544123278267,1.8333333333333333
142_21_05,21:12:10,21:12:10,915,5,U00193,28.61149114,76.97790955,Dhansa Stand,915,27,37,0.927578,FRC2,0.0,0.35957782857750537,1.4333333333333333
142_21_05,21:13:43,21:13:43,916,6,DC3547,28.610938,76.97401,Khera More,916,27,37,0.927578,FRC2,0.0,0.38627665986712667,1.55
142_21_05,21:15:46,21:15:46,2161,7,DC4783,28.606425,76.972858,Krishna Nagar / Gopal Nagar,2161,41,44,0.834944,FRC3,0.0,0.5127058644445781,2.05
142_21_05,21:19:51,21:19:51,2162,8,DC4410,28.5987726,76.96698094,Khera Village,2162,41,44,0.834944,FRC3,0.0,1.0245587045108486,4.083333333333333
142_21_05,21:21:08,21:21:08,3569,9,DC5497,28.596347,76.965226,Khera Village 2,3569,41,44,0.834944,FRC3,0.0,0.3189582796005639,1.2833333333333334
142_21_05,21:25:54,21:25:54,2163,10,DC4411,28.586969,76.959227,KharKhari Nahar / Khera Dabur,2163,41,44,0.834944,FRC3,0.0,1.1935722007050553,4.766666666666667
142_21_05,21:28:05,21:28:05,2164,11,DC4412,28.58215173,76.95808206,Surhera Crossing,2164,41,44,0.834944,FRC3,0.0,0.5455151284217342,2.183333333333333
142_21_05,21:32:24,21:32:24,2165,12,DC4413,28.573848,76.952387,Pandwala Crossing,2165,41,44,0.834944,FRC3,0.0,1.075809072386236,4.316666666666666
142_21_05,21:39:09,21:39:09,2166,13,DC4414,28.561696,76.941952,KharKhari Rondh,2166,41,44,0.834944,FRC3,0.0,1.690039991091642,6.75
142_21_05,21:42:13,21:42:13,2167,14,DC4415,28.556475,76.936796,Hasanpur Village,2167,41,44,0.834944,FRC3,0.0,0.7676925380059371,3.066666666666667
142_21_05,21:46:20,21:46:20,2168,15,DC4416,28.548826,76.930857,Devta Wala Mandir,2168,41,44,0.834944,FRC3,0.0,1.027809121584014,4.116666666666666
142_21_05,21:52:36,21:52:36,2169,16,DC4417,28.536825,76.922412,Ghuman Hera More / Shikarpur Crossing,2169,41,44,0.834944,FRC3,0.0,1.5659116348922697,6.266666666666667
142_21_05,21:54:44,21:54:44,2170,17,DC4791,28.5326827,76.9196563,Ghuman Hera Village Main Road,2170,41,44,0.834944,FRC3,0.0,0.5324460644575495,2.1333333333333333
142_21_05,21:56:39,21:56:39,2171,18,DC4429,28.534088,76.915012,Ghuman Hera DTC Depot Crossing,2171,41,44,0.834944,FRC3,0.0,0.48049492789431475,1.9166666666666667
142_21_05,21:58:55,21:58:55,2172,19,DC4013,28.5352,76.909367,Jhul-Jhuli Check Post / Ghumanhera Crossing,2172,42,42,1.0,FRC5,0.0,0.5660666354440679,2.2666666666666666
142_21_05,22:00:44,22:00:44,2173,20,DC4014,28.53162,76.907067,Jhuljhuli Crossing,2173,42,42,1.0,FRC5,0.0,0.4561754051693519,1.8166666666666667
142_21_05,22:03:21,22:03:21,2174,21,DC4015,28.526609,76.903562,Rawta Village,2174,34,34,1.0,FRC3,0.0,0.6527739955192993,2.6166666666666667
142_21_05,22:09:41,22:09:41,2175,22,DC4787,28.5253328,76.8874616,Amrawati Piyau Galib Pur Road,2175,48,48,1.0,FRC4,0.0,1.5822436623266276,6.333333333333333
142_21_05,22:12:43,22:12:43,2176,23,DC4789,28.531301,76.883663,Galib Pur Piyau,2176,48,48,1.0,FRC4,0.0,0.7587770331358497,3.033333333333333
142_21_05,22:13:58,22:13:58,2177,24,DC4785,28.529556,76.881142,Galib Pur Village,2177,48,48,1.0,FRC4,0.0,0.31350425850878233,1.25
